[
  {
    "title": "Лоцманський узвіз, 22",
    "coordinates": {
      "latitude": 48.4376825290219,
      "longitude": 35.06339830878626
    }
  },
  {
    "title": "вулиця Універсальна, 10",
    "coordinates": {
      "latitude": 48.50788805285266,
      "longitude": 35.05413497116456
    }
  },
  {
    "title": "проспект Мануйлівський, 29",
    "coordinates": {
      "latitude": 48.49231400458667,
      "longitude": 35.05114862882318
    }
  },
  {
    "title": "вулиця Широка, 179",
    "coordinates": {
      "latitude": 48.51890660396429,
      "longitude": 34.9596329576709
    }
  },
  {
    "title": "вулиця Берегова, 135",
    "coordinates": {
      "latitude": 48.50365408143406,
      "longitude": 34.99859754232911
    }
  },
  {
    "title": "вулиця Яхненковская, 7",
    "coordinates": {
      "latitude": 48.49834130200025,
      "longitude": 35.03443484602534
    }
  },
  {
    "title": "вулиця Симиренківська, 4а",
    "coordinates": {
      "latitude": 48.503438364711094,
      "longitude": 35.039486957674576
    }
  },
  {
    "title": "вулиця Амур-Гавань, 11",
    "coordinates": {
      "latitude": 48.49540664690064,
      "longitude": 35.03383478650634
    }
  },
  {
    "title": "вулиця Берегова, 164а",
    "coordinates": {
      "latitude": 48.50330487376394,
      "longitude": 35.00427151349366
    }
  },
  {
    "title": "вулиця Артільна, 10",
    "coordinates": {
      "latitude": 48.48674089818052,
      "longitude": 35.07216008465822
    }
  },
  {
    "title": "проспект Слобожанський, 35А",
    "coordinates": {
      "latitude": 48.499493092178064,
      "longitude": 35.07033612883545
    }
  },
  {
    "title": "вулиця Саранська, 93",
    "coordinates": {
      "latitude": 48.508885926454674,
      "longitude": 35.00538664417722
    }
  },
  {
    "title": "вулиця Лісопильна, 8",
    "coordinates": {
      "latitude": 48.49798816034995,
      "longitude": 35.00990585767089
    }
  },
  {
    "title": "вулиця Лісопильна, 12",
    "coordinates": {
      "latitude": 48.4977179609941,
      "longitude": 35.00517501534177
    }
  },
  {
    "title": "вулиця Любарського, 181",
    "coordinates": {
      "latitude": 48.47882849389456,
      "longitude": 35.08774205767089
    }
  },
  {
    "title": "вулиця Конотопская, 141",
    "coordinates": {
      "latitude": 48.495294966770615,
      "longitude": 35.053137571164555
    }
  },
  {
    "title": "вулиця Лоцманський узвіз, 22",
    "coordinates": {
      "latitude": 48.43768255774358,
      "longitude": 35.0635056
    }
  },
  {
    "title": "вулиця Лазаряна, 2",
    "coordinates": {
      "latitude": 48.438138338633586,
      "longitude": 35.05029818650634
    }
  },
  {
    "title": "вулиця Телевізійна, 3",
    "coordinates": {
      "latitude": 48.44424687144663,
      "longitude": 35.04912512883544
    }
  },
  {
    "title": "Запорізьке шосе, 37",
    "coordinates": {
      "latitude": 48.411184488764995,
      "longitude": 35.02843097116457
    }
  },
  {
    "title": "вулиця Космічна, 13",
    "coordinates": {
      "latitude": 48.41921392755914,
      "longitude": 35.054822
    }
  },
  {
    "title": "Писаржевського, 1А",
    "coordinates": {
      "latitude": 48.45309573587342,
      "longitude": 35.05940792883544
    }
  },
  {
    "title": "проспект Дмитра Яворницького, 19",
    "coordinates": {
      "latitude": 48.454767316861854,
      "longitude": 35.06015084417723
    }
  },
  {
    "title": "проспект Праці, 6",
    "coordinates": {
      "latitude": 48.4101116262022,
      "longitude": 35.036071799999995
    }
  },
  {
    "title": "вулиця Космічна, 19",
    "coordinates": {
      "latitude": 48.41168673676645,
      "longitude": 35.046189399999996
    }
  },
  {
    "title": "вулиця Ляшко-Попеля, 15",
    "coordinates": {
      "latitude": 48.44156009482058,
      "longitude": 35.059261471164554
    }
  },
  {
    "title": "вулиця Сергія Подолинського, 31",
    "coordinates": {
      "latitude": 48.45248522133937,
      "longitude": 35.02471978650633
    }
  },
  {
    "title": "проспект Олександра Поля, 2",
    "coordinates": {
      "latitude": 48.46724976111859,
      "longitude": 35.028731957670885
    }
  },
  {
    "title": "вулиця Николая Руденка, 77",
    "coordinates": {
      "latitude": 48.45657025906215,
      "longitude": 35.015061286506324
    }
  },
  {
    "title": "вулиця Привокзальна, 20",
    "coordinates": {
      "latitude": 48.47761133352041,
      "longitude": 35.01840768650633
    }
  },
  {
    "title": "вулиця Академіка Белелюбського, 7",
    "coordinates": {
      "latitude": 48.4805369614012,
      "longitude": 35.011921284658236
    }
  },
  {
    "title": "проспект Олександра Поля, 28А",
    "coordinates": {
      "latitude": 48.458237395042914,
      "longitude": 35.02447442883545
    }
  },
  {
    "title": "вулиця Николая Руденка, 53",
    "coordinates": {
      "latitude": 48.45815265529193,
      "longitude": 35.0186741
    }
  },
  {
    "title": "вулиця Херсонська, 9",
    "coordinates": {
      "latitude": 48.45991080676966,
      "longitude": 35.029209800000004
    }
  },
  {
    "title": "вулиця Шмідта, 5",
    "coordinates": {
      "latitude": 48.47168873616604,
      "longitude": 35.023975199999995
    }
  },
  {
    "title": "вулиця Херсонська, 26",
    "coordinates": {
      "latitude": 48.46079433434278,
      "longitude": 35.02921132883543
    }
  },
  {
    "title": "вулиця Старокозацька, 52а",
    "coordinates": {
      "latitude": 48.46754291920793,
      "longitude": 35.03181777116456
    }
  },
  {
    "title": "вулиця Старокозацька, 65",
    "coordinates": {
      "latitude": 48.468695111476954,
      "longitude": 35.02631878465821
    }
  },
  {
    "title": "проспект Олександра Поля, 93",
    "coordinates": {
      "latitude": 48.4486695451776,
      "longitude": 35.02184995582278
    }
  },
  {
    "title": "вулиця Князя Ярослава Мудрого, 68",
    "coordinates": {
      "latitude": 48.47919166893095,
      "longitude": 35.02574082883544
    }
  },
  {
    "title": "вулиця Ульянова, 10",
    "coordinates": {
      "latitude": 48.460874134163824,
      "longitude": 35.02705558650633
    }
  },
  {
    "title": "вулиця Філософська, 84",
    "coordinates": {
      "latitude": 48.45853827952758,
      "longitude": 35.0131307
    }
  },
  {
    "title": "Автотранспортна вулиця, 2",
    "coordinates": {
      "latitude": 48.42138678148142,
      "longitude": 34.99693118650634
    }
  },
  {
    "title": "вулиця Академіка Белелюбського, 70",
    "coordinates": {
      "latitude": 48.48225327456624,
      "longitude": 34.99386538465822
    }
  },
  {
    "title": "Автотранспортна вулиця, 5",
    "coordinates": {
      "latitude": 48.41642829206275,
      "longitude": 34.99756495767089
    }
  },
  {
    "title": "Криворізька вулиця, 1",
    "coordinates": {
      "latitude": 48.43782479649036,
      "longitude": 34.99535909999999
    }
  },
  {
    "title": "вулиця Канатна, 17",
    "coordinates": {
      "latitude": 48.462421087419976,
      "longitude": 35.00393081349367
    }
  },
  {
    "title": "вулиця Чечелівська, 4А",
    "coordinates": {
      "latitude": 48.469301715263256,
      "longitude": 34.99933798650634
    }
  },
  {
    "title": "вулиця Робоча, 23в",
    "coordinates": {
      "latitude": 48.45536467735136,
      "longitude": 35.005861757670885
    }
  },
  {
    "title": "вулиця Ударників, 27",
    "coordinates": {
      "latitude": 48.47872391841321,
      "longitude": 34.99581652698732
    }
  },
  {
    "title": "вулиця Щепкіна, 53",
    "coordinates": {
      "latitude": 48.46619939442954,
      "longitude": 34.9987290423291
    }
  },
  {
    "title": "вулиця Надії Алексєєнко, 84",
    "coordinates": {
      "latitude": 48.454905409475415,
      "longitude": 35.00813509999999
    }
  },
  {
    "title": "вулиця Академіка Белелюбського, 1",
    "coordinates": {
      "latitude": 48.481425511595425,
      "longitude": 35.017195755822776
    }
  },
  {
    "title": "вулиця Макарова, 20",
    "coordinates": {
      "latitude": 48.424195337272195,
      "longitude": 34.99505815767089
    }
  },
  {
    "title": "вулиця Робоча, 168",
    "coordinates": {
      "latitude": 48.443682455660046,
      "longitude": 34.99801192883544
    }
  },
  {
    "title": "проспект Богдана Хмельницького, 106а",
    "coordinates": {
      "latitude": 48.411660795278294,
      "longitude": 34.99886044232911
    }
  },
  {
    "title": "вулиця Академіка Белелюбського, 14",
    "coordinates": {
      "latitude": 48.481096976997996,
      "longitude": 35.0122904576709
    }
  },
  {
    "title": "проспект Сергія Нігояна, 3",
    "coordinates": {
      "latitude": 48.471934674834465,
      "longitude": 35.00565628465822
    }
  },
  {
    "title": "вулиця Володимира Антоновича, 72",
    "coordinates": {
      "latitude": 48.468074340762264,
      "longitude": 35.00897395582277
    }
  },
  {
    "title": "проспект Сергія Нігояна, 42б",
    "coordinates": {
      "latitude": 48.47739770943149,
      "longitude": 34.99226727116456
    }
  },
  {
    "title": "вулиця Будівельників, 34",
    "coordinates": {
      "latitude": 48.435753426816404,
      "longitude": 34.97620958650633
    }
  },
  {
    "title": "вулиця Макарова, 29",
    "coordinates": {
      "latitude": 48.4261139706407,
      "longitude": 34.9964097018481
    }
  },
  {
    "title": "проспект Богдана Хмельницького, 34",
    "coordinates": {
      "latitude": 48.4257268129623,
      "longitude": 35.011876
    }
  }
]
